{"type":"FeatureCollection","features":[{"type":"Feature","geometry":{"type":"Point","coordinates":[-122.33984085182927,47.6119025472036]},"properties":{"id":"cafe-1","name":"Storyville Coffee Pike Place","rating":4.6,"closing_time":"16:00"}},{"type":"Feature","geometry":{"type":"Point","coordinates":[-122.33502377093035,47.615883905978755]},"properties":{"id":"cafe-2","name":"Ancorhead Coffee","rating":4.5,"closing_time":"18:00"}},{"type":"Feature","geometry":{"type":"Point","coordinates":[-122.28284876204951,47.576978558819846]},"properties":{"id":"cafe-3","name":"Coffeeholic House","rating":4.7,"closing_time":"17:00"}},{"type":"Feature","geometry":{"type":"Point","coordinates":[-122.342905004525,47.65337499454749]},"properties":{"id":"cafe-4","name":"Aroom Coffee","rating":4.6,"closing_time":"17:00"}},{"type":"Feature","geometry":{"type":"Point","coordinates":[-122.31228557906383,47.60843906958911]},"properties":{"id":"cafe-5","name":"Drip Drip Coffeehouse","rating":4.8,"closing_time":"17:30"}},{"type":"Feature","geometry":{"type":"Point","coordinates":[-122.34119866219879,47.61193849186838]},"properties":{"id":"cafe-6","name":"Moore Coffee Shop","rating":4.4,"closing_time":"15:30"}},{"type":"Feature","geometry":{"type":"Point","coordinates":[-122.32600931943456,47.60285255054373]},"properties":{"id":"cafe-7","name":"Hood Famous","rating":4.4,"closing_time":"20:00"}},{"type":"Feature","geometry":{"type":"Point","coordinates":[-122.38302125927359,47.560150217192444]},"properties":{"id":"cafe-8","name":"Sound and Fog","rating":4.7,"closing_time":"18:00"}},{"type":"Feature","geometry":{"type":"Point","coordinates":[-122.33821042798472,47.61267434130484]},"properties":{"id":"cafe-9","name":"Victrola Coffee Roasters","rating":4.3,"closing_time":"16:00"},"id":8},{"type":"Feature","geometry":{"type":"Point","coordinates":[-122.35476861507416,47.62355200312439]},"properties":{"id":"cafe-10","name":"Sugar Bakery & Coffeehouse","rating":4.3,"closing_time":"17:00"}}]}